{"type":"FeatureCollection","features":[{"type":"Feature","properties":{"1":5,"2":6,"3":9,"4":11,"5":11,"REGION":3,"DIVISION":5,"STATEFP":54,"STATENS":1779805,"GEOID":54,"STUSPS":"WV","NAME":"West Virginia","LSAD":0,"MTFCC":"G4000","FUNCSTAT":"A","ALAND":62266231560,"AWATER":489271086,"lon":-80.6137,"lat":38.6426},"geometry":{"type":"Point","coordinates":[-80.6183274,38.6472854]}},{"type":"Feature","properties":{"1":78,"2":132,"3":322,"4":707,"5":785,"REGION":3,"DIVISION":5,"STATEFP":12,"STATENS":294478,"GEOID":12,"STUSPS":"FL","NAME":"Florida","LSAD":0,"MTFCC":"G4000","FUNCSTAT":"A","ALAND":"1.38947E+11","AWATER":31362872853,"lon":-82.4664,"lat":28.4771},"geometry":{"type":"Point","coordinates":[-82.4091477,28.4574302]}},{"type":"Feature","properties":{"1":10,"2":16,"3":33,"4":75,"5":85,"REGION":2,"DIVISION":3,"STATEFP":17,"STATENS":1779784,"GEOID":17,"STUSPS":"IL","NAME":"Illinois","LSAD":0,"MTFCC":"G4000","FUNCSTAT":"A","ALAND":"1.4378E+11","AWATER":6215723896,"lon":-89.1486,"lat":40.1242},"geometry":{"type":"Point","coordinates":[-89.1526108,40.1028754]}},{"type":"Feature","properties":{"1":12,"2":17,"3":29,"4":47,"5":55,"REGION":2,"DIVISION":4,"STATEFP":27,"STATENS":662849,"GEOID":27,"STUSPS":"MN","NAME":"Minnesota","LSAD":0,"MTFCC":"G4000","FUNCSTAT":"A","ALAND":"2.0623E+11","AWATER":18942261495,"lon":-94.1983,"lat":46.3493},"geometry":{"type":"Point","coordinates":[-94.1996043,46.3159573]}},{"type":"Feature","properties":{"1":6,"2":21,"3":54,"4":102,"5":125,"REGION":3,"DIVISION":5,"STATEFP":24,"STATENS":1714934,"GEOID":24,"STUSPS":"MD","NAME":"Maryland","LSAD":0,"MTFCC":"G4000","FUNCSTAT":"A","ALAND":25151726296,"AWATER":6979340970,"lon":-76.6872,"lat":38.9465},"geometry":{"type":"Point","coordinates":[-76.6744939,38.9466584]}},{"type":"Feature","properties":{"1":"","2":4,"3":18,"4":32,"5":35,"REGION":1,"DIVISION":1,"STATEFP":44,"STATENS":1219835,"GEOID":44,"STUSPS":"RI","NAME":"Rhode Island","LSAD":0,"MTFCC":"G4000","FUNCSTAT":"A","ALAND":2677787140,"AWATER":1323663210,"lon":-71.5247,"lat":41.5946},"geometry":{"type":"Point","coordinates":[-71.5272723,41.5974187]}},{"type":"Feature","properties":{"1":"","2":"","3":"","4":3,"5":4,"REGION":4,"DIVISION":8,"STATEFP":16,"STATENS":1779783,"GEOID":16,"STUSPS":"ID","NAME":"Idaho","LSAD":0,"MTFCC":"G4000","FUNCSTAT":"A","ALAND":"2.1405E+11","AWATER":2391604238,"lon":-114.6594,"lat":44.3891},"geometry":{"type":"Point","coordinates":[-114.5588538,44.3484222]}},{"type":"Feature","properties":{"1":2,"2":4,"3":8,"4":10,"5":12,"REGION":1,"DIVISION":1,"STATEFP":33,"STATENS":1779794,"GEOID":33,"STUSPS":"NH","NAME":"New Hampshire","LSAD":0,"MTFCC":"G4000","FUNCSTAT":"A","ALAND":23189198255,"AWATER":1026903434,"lon":-71.5712,"lat":43.6802},"geometry":{"type":"Point","coordinates":[-71.5843145,43.6726907]}},{"type":"Feature","properties":{"1":8,"2":11,"3":30,"4":66,"5":83,"REGION":3,"DIVISION":5,"STATEFP":37,"STATENS":1027616,"GEOID":37,"STUSPS":"NC","NAME":"North Carolina","LSAD":0,"MTFCC":"G4000","FUNCSTAT":"A","ALAND":"1.25926E+11","AWATER":13463401534,"lon":-79.1309,"lat":35.526},"geometry":{"type":"Point","coordinates":[-79.1308636,35.53971]}},{"type":"Feature","properties":{"1":"","2":1,"3":6,"4":7,"5":10,"REGION":1,"DIVISION":1,"STATEFP":50,"STATENS":1779802,"GEOID":50,"STUSPS":"VT","NAME":"Vermont","LSAD":0,"MTFCC":"G4000","FUNCSTAT":"A","ALAND":23874197924,"AWATER":1030383955,"lon":-72.6626,"lat":44.0752},"geometry":{"type":"Point","coordinates":[-72.6691839,44.0685773]}},{"type":"Feature","properties":{"1":1,"2":1,"3":39,"4":58,"5":58,"REGION":1,"DIVISION":1,"STATEFP":9,"STATENS":1779780,"GEOID":9,"STUSPS":"CT","NAME":"Connecticut","LSAD":0,"MTFCC":"G4000","FUNCSTAT":"A","ALAND":12542497381,"AWATER":1815617293,"lon":-72.7383,"lat":41.5752},"geometry":{"type":"Point","coordinates":[-72.7466572,41.5798637]}},{"type":"Feature","properties":{"1":3,"2":4,"3":10,"4":15,"5":17,"REGION":3,"DIVISION":5,"STATEFP":10,"STATENS":1779781,"GEOID":10,"STUSPS":"DE","NAME":"Delaware","LSAD":0,"MTFCC":"G4000","FUNCSTAT":"A","ALAND":5046620081,"AWATER":1399291164,"lon":-75.4525,"lat":38.995},"geometry":{"type":"Point","coordinates":[-75.441644,38.9985661]}},{"type":"Feature","properties":{"1":"","2":3,"3":3,"4":7,"5":9,"REGION":4,"DIVISION":8,"STATEFP":35,"STATENS":897535,"GEOID":35,"STUSPS":"NM","NAME":"New Mexico","LSAD":0,"MTFCC":"G4000","FUNCSTAT":"A","ALAND":"3.14197E+11","AWATER":727781442,"lon":-106.1084,"lat":34.4213},"geometry":{"type":"Point","coordinates":[-106.1316181,34.4346843]}},{"type":"Feature","properties":{"1":29,"2":48,"3":87,"4":277,"5":375,"REGION":4,"DIVISION":9,"STATEFP":6,"STATENS":1779778,"GEOID":6,"STUSPS":"CA","NAME":"California","LSAD":0,"MTFCC":"G4000","FUNCSTAT":"A","ALAND":"4.0366E+11","AWATER":20305454540,"lon":-119.6639,"lat":37.2153},"geometry":{"type":"Point","coordinates":[-119.5434183,37.1551773]}},{"type":"Feature","properties":{"1":5,"2":17,"3":50,"4":133,"5":164,"REGION":1,"DIVISION":2,"STATEFP":34,"STATENS":1779795,"GEOID":34,"STUSPS":"NJ","NAME":"New Jersey","LSAD":0,"MTFCC":"G4000","FUNCSTAT":"A","ALAND":19048848841,"AWATER":3543837357,"lon":-74.6556,"lat":40.1102},"geometry":{"type":"Point","coordinates":[-74.6652012,40.1072744]}},{"type":"Feature","properties":{"1":"","2":2,"3":17,"4":40,"5":48,"REGION":2,"DIVISION":3,"STATEFP":55,"STATENS":1779806,"GEOID":55,"STUSPS":"WI","NAME":"Wisconsin","LSAD":0,"MTFCC":"G4000","FUNCSTAT":"A","ALAND":"1.40293E+11","AWATER":29344176961,"lon":-89.733,"lat":44.6399},"geometry":{"type":"Point","coordinates":[-89.7093916,44.6309071]}},{"type":"Feature","properties":{"1":6,"2":6,"3":14,"4":27,"5":39,"REGION":4,"DIVISION":9,"STATEFP":41,"STATENS":1155107,"GEOID":41,"STUSPS":"OR","NAME":"Oregon","LSAD":0,"MTFCC":"G4000","FUNCSTAT":"A","ALAND":"2.48608E+11","AWATER":6191602576,"lon":-120.6053,"lat":43.9405},"geometry":{"type":"Point","coordinates":[-120.6229578,43.9717125]}},{"type":"Feature","properties":{"1":2,"2":2,"3":4,"4":11,"5":13,"REGION":2,"DIVISION":4,"STATEFP":31,"STATENS":1779792,"GEOID":31,"STUSPS":"NE","NAME":"Nebraska","LSAD":0,"MTFCC":"G4000","FUNCSTAT":"A","ALAND":"1.98954E+11","AWATER":1374686302,"lon":-99.8109,"lat":41.5271},"geometry":{"type":"Point","coordinates":[-99.8118646,41.5433053]}},{"type":"Feature","properties":{"1":12,"2":23,"3":"","4":"","5":"","REGION":1,"DIVISION":2,"STATEFP":42,"STATENS":1779798,"GEOID":42,"STUSPS":"PA","NAME":"Pennsylvania","LSAD":0,"MTFCC":"G4000","FUNCSTAT":"A","ALAND":"1.1588E+11","AWATER":3398574954,"lon":-77.8389,"lat":40.8967},"geometry":{"type":"Point","coordinates":[-77.8275298,40.9046013]}},{"type":"Feature","properties":{"1":2,"2":4,"3":16,"4":34,"5":58,"REGION":4,"DIVISION":9,"STATEFP":53,"STATENS":1779804,"GEOID":53,"STUSPS":"WA","NAME":"Washington","LSAD":0,"MTFCC":"G4000","FUNCSTAT":"A","ALAND":"1.72118E+11","AWATER":12549727444,"lon":-120.5928,"lat":47.4116},"geometry":{"type":"Point","coordinates":[-120.5757999,47.4073238]}},{"type":"Feature","properties":{"1":4,"2":4,"3":9,"4":32,"5":35,"REGION":3,"DIVISION":7,"STATEFP":22,"STATENS":1629543,"GEOID":22,"STUSPS":"LA","NAME":"Louisiana","LSAD":0,"MTFCC":"G4000","FUNCSTAT":"A","ALAND":"1.11899E+11","AWATER":23752001883,"lon":-91.8142,"lat":30.9091},"geometry":{"type":"Point","coordinates":[-91.7987173,30.8634368]}},{"type":"Feature","properties":{"1":11,"2":17,"3":42,"4":86,"5":104,"REGION":3,"DIVISION":5,"STATEFP":13,"STATENS":1705317,"GEOID":13,"STUSPS":"GA","NAME":"Georgia","LSAD":0,"MTFCC":"G4000","FUNCSTAT":"A","ALAND":"1.49485E+11","AWATER":4420380296,"lon":-83.4272,"lat":32.6386},"geometry":{"type":"Point","coordinates":[-83.4235109,32.6295789]}},{"type":"Feature","properties":{"1":2,"2":2,"3":11,"4":27,"5":30,"REGION":3,"DIVISION":6,"STATEFP":1,"STATENS":1779775,"GEOID":1,"STUSPS":"AL","NAME":"Alabama","LSAD":0,"MTFCC":"G4000","FUNCSTAT":"A","ALAND":"1.31174E+11","AWATER":4593183334,"lon":-86.8445,"lat":32.7569},"geometry":{"type":"Point","coordinates":[-86.8434593,32.7396323]}},{"type":"Feature","properties":{"1":2,"2":2,"3":6,"4":15,"5":19,"REGION":4,"DIVISION":8,"STATEFP":49,"STATENS":1455989,"GEOID":49,"STUSPS":"UT","NAME":"Utah","LSAD":0,"MTFCC":"G4000","FUNCSTAT":"A","ALAND":"2.13355E+11","AWATER":6529910339,"lon":-111.6782,"lat":39.3238},"geometry":{"type":"Point","coordinates":[-111.6563326,39.3349925]}},{"type":"Feature","properties":{"1":9,"2":14,"3":26,"4":53,"5":75,"REGION":2,"DIVISION":3,"STATEFP":39,"STATENS":1085497,"GEOID":39,"STUSPS":"OH","NAME":"Ohio","LSAD":0,"MTFCC":"G4000","FUNCSTAT":"A","ALAND":"1.05824E+11","AWATER":10274036690,"lon":-82.7094,"lat":40.4155},"geometry":{"type":"Point","coordinates":[-82.7119975,40.4149297]}},{"type":"Feature","properties":{"1":27,"2":40,"3":89,"4":218,"5":268,"REGION":3,"DIVISION":7,"STATEFP":48,"STATENS":1779801,"GEOID":48,"STUSPS":"TX","NAME":"Texas","LSAD":0,"MTFCC":"G4000","FUNCSTAT":"A","ALAND":"6.76668E+11","AWATER":18991880422,"lon":-99.3171,"lat":31.4472},"geometry":{"type":"Point","coordinates":[-99.2818238,31.4347032]}},{"type":"Feature","properties":{"1":2,"2":4,"3":19,"4":36,"5":50,"REGION":4,"DIVISION":8,"STATEFP":8,"STATENS":1779779,"GEOID":8,"STUSPS":"CO","NAME":"Colorado","LSAD":0,"MTFCC":"G4000","FUNCSTAT":"A","ALAND":"2.6842E+11","AWATER":1184637800,"lon":-105.5478,"lat":38.9985},"geometry":{"type":"Point","coordinates":[-105.5083165,38.9938482]}},{"type":"Feature","properties":{"1":"","2":1,"3":28,"4":31,"5":54,"REGION":3,"DIVISION":5,"STATEFP":45,"STATENS":1779799,"GEOID":45,"STUSPS":"SC","NAME":"South Carolina","LSAD":0,"MTFCC":"G4000","FUNCSTAT":"A","ALAND":77864659170,"AWATER":5075874513,"lon":-80.8646,"lat":33.8777},"geometry":{"type":"Point","coordinates":[-80.8542639,33.8741776]}},{"type":"Feature","properties":{"1":3,"2":5,"3":13,"4":27,"5":29,"REGION":3,"DIVISION":7,"STATEFP":40,"STATENS":1102857,"GEOID":40,"STUSPS":"OK","NAME":"Oklahoma","LSAD":0,"MTFCC":"G4000","FUNCSTAT":"A","ALAND":"1.77663E+11","AWATER":3374950118,"lon":-97.5082,"lat":35.5835},"geometry":{"type":"Point","coordinates":[-97.4868149,35.5900512]}},{"type":"Feature","properties":{"1":1,"2":4,"3":22,"4":52,"5":58,"REGION":3,"DIVISION":6,"STATEFP":47,"STATENS":1325873,"GEOID":47,"STUSPS":"TN","NAME":"Tennessee","LSAD":0,"MTFCC":"G4000","FUNCSTAT":"A","ALAND":"1.06806E+11","AWATER":2347012319,"lon":-86.3434,"lat":35.843},"geometry":{"type":"Point","coordinates":[-86.3499896,35.860803]}},{"type":"Feature","properties":{"1":"","2":"","3":"","4":2,"5":2,"REGION":4,"DIVISION":8,"STATEFP":56,"STATENS":1779807,"GEOID":56,"STUSPS":"WY","NAME":"Wyoming","LSAD":0,"MTFCC":"G4000","FUNCSTAT":"A","ALAND":"2.51459E+11","AWATER":1867637632,"lon":-107.5514,"lat":42.9995},"geometry":{"type":"Point","coordinates":[-107.5443922,42.9896591]}},{"type":"Feature","properties":{"1":5,"2":10,"3":10,"4":14,"5":14,"REGION":4,"DIVISION":9,"STATEFP":15,"STATENS":1779782,"GEOID":15,"STUSPS":"HI","NAME":"Hawaii","LSAD":0,"MTFCC":"G4000","FUNCSTAT":"A","ALAND":16634006436,"AWATER":11777792811,"lon":-158.11,"lat":20.9951},"geometry":{"type":"Point","coordinates":[-155.5024434,19.5977643]}},{"type":"Feature","properties":{"1":"","2":"","3":1,"4":2,"5":2,"REGION":2,"DIVISION":4,"STATEFP":38,"STATENS":1779797,"GEOID":38,"STUSPS":"ND","NAME":"North Dakota","LSAD":0,"MTFCC":"G4000","FUNCSTAT":"A","ALAND":"1.78696E+11","AWATER":4411365971,"lon":-100.4693,"lat":47.4463},"geometry":{"type":"Point","coordinates":[-100.4608258,47.442174]}},{"type":"Feature","properties":{"1":3,"2":6,"3":10,"4":24,"5":24,"REGION":3,"DIVISION":6,"STATEFP":21,"STATENS":1779786,"GEOID":21,"STUSPS":"KY","NAME":"Kentucky","LSAD":0,"MTFCC":"G4000","FUNCSTAT":"A","ALAND":"1.02282E+11","AWATER":2372611005,"lon":-85.2906,"lat":37.5266},"geometry":{"type":"Point","coordinates":[-85.2929801,37.5336844]}},{"type":"Feature","properties":{"1":"","2":"","3":"","4":"","5":"","REGION":9,"DIVISION":0,"STATEFP":78,"STATENS":1802710,"GEOID":78,"STUSPS":"VI","NAME":"United States Virgin Islands","LSAD":0,"MTFCC":"G4000","FUNCSTAT":"A","ALAND":348021896,"AWATER":1550236199,"lon":-64.839,"lat":18.0598},"geometry":{"type":"Point","coordinates":[-64.9712508,18.326748]}},{"type":"Feature","properties":{"1":"","2":"","3":"","4":"","5":"","REGION":9,"DIVISION":0,"STATEFP":69,"STATENS":1779809,"GEOID":69,"STUSPS":"MP","NAME":"Commonwealth of the Northern Mariana Islands","LSAD":0,"MTFCC":"G4000","FUNCSTAT":"A","ALAND":472292529,"AWATER":4644252458,"lon":145.5957,"lat":16.8171},"geometry":{"type":"Point","coordinates":[145.601021,14.9367835]}},{"type":"Feature","properties":{"1":"","2":"","3":"","4":"","5":"","REGION":9,"DIVISION":0,"STATEFP":66,"STATENS":1802705,"GEOID":66,"STUSPS":"GU","NAME":"Guam","LSAD":0,"MTFCC":"G4000","FUNCSTAT":"A","ALAND":543555844,"AWATER":934337453,"lon":144.7695,"lat":13.4428},"geometry":{"type":"Point","coordinates":[144.7719021,13.4417451]}},{"type":"Feature","properties":{"1":1,"2":6,"3":9,"4":11,"5":13,"REGION":1,"DIVISION":1,"STATEFP":23,"STATENS":1779787,"GEOID":23,"STUSPS":"ME","NAME":"Maine","LSAD":0,"MTFCC":"G4000","FUNCSTAT":"A","ALAND":79887659040,"AWATER":11745717739,"lon":-69.2028,"lat":45.2743},"geometry":{"type":"Point","coordinates":[-68.666616,45.4092843]}},{"type":"Feature","properties":{"1":55,"2":164,"3":491,"4":837,"5":942,"REGION":1,"DIVISION":2,"STATEFP":36,"STATENS":1779796,"GEOID":36,"STUSPS":"NY","NAME":"New York","LSAD":0,"MTFCC":"G4000","FUNCSTAT":"A","ALAND":"1.2205E+11","AWATER":19246143659,"lon":-75.5965,"lat":42.9212},"geometry":{"type":"Point","coordinates":[-75.5962723,42.9133974]}},{"type":"Feature","properties":{"1":2,"2":6,"3":11,"4":14,"5":18,"REGION":4,"DIVISION":8,"STATEFP":32,"STATENS":1779793,"GEOID":32,"STUSPS":"NV","NAME":"Nevada","LSAD":0,"MTFCC":"G4000","FUNCSTAT":"A","ALAND":"2.84537E+11","AWATER":1839662829,"lon":-116.6552,"lat":39.3562},"geometry":{"type":"Point","coordinates":[-116.6151469,39.3310928]}},{"type":"Feature","properties":{"1":"","2":"","3":"","4":"","5":"","REGION":4,"DIVISION":9,"STATEFP":2,"STATENS":1785533,"GEOID":2,"STUSPS":"AK","NAME":"Alaska","LSAD":0,"MTFCC":"G4000","FUNCSTAT":"A","ALAND":"1.47893E+12","AWATER":"2.45394E+11","lon":-151.6006,"lat":63.7366},"geometry":{"type":"Point","coordinates":[-152.8397334,63.347356]}},{"type":"Feature","properties":{"1":"","2":"","3":"","4":7,"5":"","REGION":9,"DIVISION":0,"STATEFP":60,"STATENS":1802701,"GEOID":60,"STUSPS":"AS","NAME":"American Samoa","LSAD":0,"MTFCC":"G4000","FUNCSTAT":"A","ALAND":197759069,"AWATER":1307243751,"lon":-170.0796,"lat":-13.966},"geometry":{"type":"Point","coordinates":[-170.6682674,-14.267159]}},{"type":"Feature","properties":{"1":2,"2":7,"3":17,"4":60,"5":63,"REGION":2,"DIVISION":3,"STATEFP":26,"STATENS":1779789,"GEOID":26,"STUSPS":"MI","NAME":"Michigan","LSAD":0,"MTFCC":"G4000","FUNCSTAT":"A","ALAND":"1.46609E+11","AWATER":"1.03878E+11","lon":-85.731,"lat":44.8748},"geometry":{"type":"Point","coordinates":[-85.6604907,44.8441768]}},{"type":"Feature","properties":{"1":1,"2":5,"3":5,"4":10,"5":13,"REGION":3,"DIVISION":7,"STATEFP":5,"STATENS":68085,"GEOID":5,"STUSPS":"AR","NAME":"Arkansas","LSAD":0,"MTFCC":"G4000","FUNCSTAT":"A","ALAND":"1.34777E+11","AWATER":2956395922,"lon":-92.4392,"lat":34.8998},"geometry":{"type":"Point","coordinates":[-92.4446262,34.8955256]}},{"type":"Feature","properties":{"1":2,"2":3,"3":14,"4":23,"5":23,"REGION":3,"DIVISION":6,"STATEFP":28,"STATENS":1779790,"GEOID":28,"STUSPS":"MS","NAME":"Mississippi","LSAD":0,"MTFCC":"G4000","FUNCSTAT":"A","ALAND":"1.21537E+11","AWATER":3923863925,"lon":-89.6534,"lat":32.7129},"geometry":{"type":"Point","coordinates":[-89.6561377,32.6864714]}},{"type":"Feature","properties":{"1":2,"2":4,"3":10,"4":27,"5":36,"REGION":2,"DIVISION":4,"STATEFP":29,"STATENS":1779791,"GEOID":29,"STUSPS":"MO","NAME":"Missouri","LSAD":0,"MTFCC":"G4000","FUNCSTAT":"A","ALAND":"1.7805E+11","AWATER":2489250399,"lon":-92.4774,"lat":38.3676},"geometry":{"type":"Point","coordinates":[-92.4567826,38.35075]}},{"type":"Feature","properties":{"1":1,"2":1,"3":1,"4":7,"5":7,"REGION":4,"DIVISION":8,"STATEFP":30,"STATENS":767982,"GEOID":30,"STUSPS":"MT","NAME":"Montana","LSAD":0,"MTFCC":"G4000","FUNCSTAT":"A","ALAND":"3.76967E+11","AWATER":3869031338,"lon":-109.6452,"lat":47.0334},"geometry":{"type":"Point","coordinates":[-109.6348174,47.0511771]}},{"type":"Feature","properties":{"1":1,"2":2,"3":8,"4":15,"5":17,"REGION":2,"DIVISION":4,"STATEFP":20,"STATENS":481813,"GEOID":20,"STUSPS":"KS","NAME":"Kansas","LSAD":0,"MTFCC":"G4000","FUNCSTAT":"A","ALAND":"2.11753E+11","AWATER":1346010601,"lon":-98.3802,"lat":38.4847},"geometry":{"type":"Point","coordinates":[-98.3834298,38.4985464]}},{"type":"Feature","properties":{"1":6,"2":7,"3":20,"4":38,"5":47,"REGION":2,"DIVISION":3,"STATEFP":18,"STATENS":448508,"GEOID":18,"STUSPS":"IN","NAME":"Indiana","LSAD":0,"MTFCC":"G4000","FUNCSTAT":"A","ALAND":92790048198,"AWATER":1537252652,"lon":-86.2818,"lat":39.9199},"geometry":{"type":"Point","coordinates":[-86.2919129,39.9013136]}},{"type":"Feature","properties":{"1":2,"2":3,"3":22,"4":75,"5":124,"REGION":9,"DIVISION":0,"STATEFP":72,"STATENS":1779808,"GEOID":72,"STUSPS":"PR","NAME":"Puerto Rico","LSAD":0,"MTFCC":"G4000","FUNCSTAT":"A","ALAND":8868701898,"AWATER":4922576715,"lon":-66.4147,"lat":18.2157},"geometry":{"type":"Point","coordinates":[-66.4107992,18.217648]}},{"type":"Feature","properties":{"1":"","2":"","3":"","4":2,"5":2,"REGION":2,"DIVISION":4,"STATEFP":46,"STATENS":1785534,"GEOID":46,"STUSPS":"SD","NAME":"South Dakota","LSAD":0,"MTFCC":"G4000","FUNCSTAT":"A","ALAND":"1.96346E+11","AWATER":3383460688,"lon":-100.2305,"lat":44.4361},"geometry":{"type":"Point","coordinates":[-100.2381762,44.4467957]}},{"type":"Feature","properties":{"1":7,"2":20,"3":54,"4":93,"5":106,"REGION":1,"DIVISION":1,"STATEFP":25,"STATENS":606926,"GEOID":25,"STUSPS":"MA","NAME":"Massachusetts","LSAD":0,"MTFCC":"G4000","FUNCSTAT":"A","ALAND":20204387828,"AWATER":7130663019,"lon":-71.504,"lat":42.1601},"geometry":{"type":"Point","coordinates":[-71.4895915,42.1565196]}},{"type":"Feature","properties":{"1":8,"2":20,"3":57,"4":86,"5":95,"REGION":3,"DIVISION":5,"STATEFP":51,"STATENS":1779803,"GEOID":51,"STUSPS":"VA","NAME":"Virginia","LSAD":0,"MTFCC":"G4000","FUNCSTAT":"A","ALAND":"1.02258E+11","AWATER":8527942672,"lon":-78.6664,"lat":37.5109},"geometry":{"type":"Point","coordinates":[-78.6681938,37.5222512]}},{"type":"Feature","properties":{"1":3,"2":6,"3":10,"4":25,"5":27,"REGION":3,"DIVISION":5,"STATEFP":11,"STATENS":1702382,"GEOID":11,"STUSPS":"DC","NAME":"District of Columbia","LSAD":0,"MTFCC":"G4000","FUNCSTAT":"A","ALAND":158340389,"AWATER":18687196,"lon":-77.0163,"lat":38.9048},"geometry":{"type":"Point","coordinates":[-77.0165167,38.9042474]}},{"type":"Feature","properties":{"1":4,"2":7,"3":9,"4":16,"5":19,"REGION":2,"DIVISION":4,"STATEFP":19,"STATENS":1779785,"GEOID":19,"STUSPS":"IA","NAME":"Iowa","LSAD":0,"MTFCC":"G4000","FUNCSTAT":"A","ALAND":"1.4466E+11","AWATER":1084981626,"lon":-93.5001,"lat":42.0746},"geometry":{"type":"Point","coordinates":[-93.4933473,42.0700243]}},{"type":"Feature","properties":{"1":1,"2":2,"3":10,"4":36,"5":51,"REGION":4,"DIVISION":8,"STATEFP":4,"STATENS":1779777,"GEOID":4,"STUSPS":"AZ","NAME":"Arizona","LSAD":0,"MTFCC":"G4000","FUNCSTAT":"A","ALAND":"2.9436E+11","AWATER":859561204,"lon":-111.6644,"lat":34.2931},"geometry":{"type":"Point","coordinates":[-111.6063565,34.2039355]}}]}